[
  {
    "item": 0,
    "battery": 48,
    "charging_status": "No",
    "charging_time": 0,
    "country": "Switzerland",
    "discharging_time": 1,
    "lat": 47.5109967,
    "lon": 8.5231287,
    "rownr": 0,
    "vehicle": "SBB S9",
    "zip_city": "8180 Bülach",
    "row": 7,
    "col": 10
  },
  {
    "item": 1,
    "battery": 51,
    "charging_status": "No",
    "charging_time": 0,
    "country": "Switzerland",
    "discharging_time": 1,
    "lat": 47.6757113,
    "lon": 8.6127883,
    "rownr": 1,
    "vehicle": "SBB S9",
    "zip_city": "8200 Schaffhausen",
    "row": 4,
    "col": 11
  },
  {
    "item": 2,
    "battery": 56,
    "charging_status": "No",
    "charging_time": 0,
    "country": "Germany",
    "discharging_time": 1,
    "lat": 47.759024,
    "lon": 8.8409286,
    "rownr": 2,
    "vehicle": "RE 2",
    "zip_city": "78224 Singen (Hohentwiel)",
    "row": 3,
    "col": 14
  },
  {
    "item": 3,
    "battery": 58,
    "charging_status": "No",
    "charging_time": 0,
    "country": "Germany",
    "discharging_time": 1,
    "lat": 47.8561014,
    "lon": 8.7724731,
    "rownr": 3,
    "vehicle": "RE 2",
    "zip_city": "78234 Engen",
    "row": 2,
    "col": 13
  },
  {
    "item": 4,
    "battery": 64,
    "charging_status": "Yes",
    "charging_time": 0,
    "country": "Germany",
    "discharging_time": 2,
    "lat": 47.9393358,
    "lon": 8.5323209,
    "rownr": 4,
    "vehicle": "RE 2",
    "zip_city": "78166 Donaueschingen",
    "row": 0,
    "col": 10
  },
  {
    "item": 5,
    "battery": 57,
    "charging_status": "Yes",
    "charging_time": 0,
    "country": "Germany",
    "discharging_time": 0,
    "lat": 47.929172,
    "lon": 8.490261,
    "rownr": 5,
    "vehicle": "S 10",
    "zip_city": "78183 Hüfingen",
    "row": 0,
    "col": 10
  },
  {
    "item": 6,
    "battery": 44,
    "charging_status": "No",
    "charging_time": 0,
    "country": "Germany",
    "discharging_time": 1,
    "lat": 47.8934174,
    "lon": 8.4463498,
    "rownr": 6,
    "vehicle": "S 10",
    "zip_city": "78199 Bräunlingen",
    "row": 1,
    "col": 9
  },
  {
    "item": 7,
    "battery": 45,
    "charging_status": "No",
    "charging_time": 0,
    "country": "Germany",
    "discharging_time": 1,
    "lat": 47.8883632,
    "lon": 8.3966888,
    "rownr": 7,
    "vehicle": "S 10",
    "zip_city": "79843 Löffingen",
    "row": 1,
    "col": 9
  },
  {
    "item": 8,
    "battery": 46,
    "charging_status": "No",
    "charging_time": 0,
    "country": "Germany",
    "discharging_time": 1,
    "lat": 47.8854502,
    "lon": 8.340816,
    "rownr": 8,
    "vehicle": "S 10",
    "zip_city": "79843 Löffingen",
    "row": 1,
    "col": 8
  },
  {
    "item": 9,
    "battery": 46,
    "charging_status": "No",
    "charging_time": 0,
    "country": "Germany",
    "discharging_time": 1,
    "lat": 47.8980657,
    "lon": 8.2806867,
    "rownr": 9,
    "vehicle": "S 10",
    "zip_city": "79877 Rötenbach Friedenweiler",
    "row": 1,
    "col": 7
  },
  {
    "item": 10,
    "battery": 48,
    "charging_status": "No",
    "charging_time": 0,
    "country": "Germany",
    "discharging_time": 1,
    "lat": 47.9021279,
    "lon": 8.1531423,
    "rownr": 11,
    "vehicle": "S 10",
    "zip_city": "79822 Titisee-Neustadt",
    "row": 1,
    "col": 6
  },
  {
    "item": 11,
    "battery": 50,
    "charging_status": "No",
    "charging_time": 0,
    "country": "Germany",
    "discharging_time": 1,
    "lat": 47.9102005,
    "lon": 8.1069249,
    "rownr": 12,
    "vehicle": "S 10",
    "zip_city": "79856 Hinterzarten",
    "row": 1,
    "col": 6
  },
  {
    "item": 12,
    "battery": 50,
    "charging_status": "No",
    "charging_time": 0,
    "country": "Germany",
    "discharging_time": 1,
    "lat": 47.9673655,
    "lon": 7.9665289,
    "rownr": 13,
    "vehicle": "S 10",
    "zip_city": "79199 Kirchzarten",
    "row": 0,
    "col": 4
  },
  {
    "item": 13,
    "battery": 51,
    "charging_status": "No",
    "charging_time": 0,
    "country": "Germany",
    "discharging_time": 1,
    "lat": 47.9677992,
    "lon": 7.9587798,
    "rownr": 14,
    "vehicle": "S 10",
    "zip_city": "79199 Kirchzarten",
    "row": 0,
    "col": 4
  },
  {
    "item": 14,
    "battery": 51,
    "charging_status": "Yes",
    "charging_time": 0,
    "country": "Germany",
    "discharging_time": 1,
    "lat": 47.9832656,
    "lon": 7.8852907,
    "rownr": 15,
    "vehicle": "S 10",
    "zip_city": "79117 Freiburg im Breisgau",
    "row": 0,
    "col": 3
  },
  {
    "item": 15,
    "battery": 52,
    "charging_status": "No",
    "charging_time": 0,
    "country": "Germany",
    "discharging_time": 1,
    "lat": 47.9826295,
    "lon": 7.8537725,
    "rownr": 16,
    "vehicle": "S 10",
    "zip_city": "79102 Freiburg im Breisgau",
    "row": 0,
    "col": 3
  },
  {
    "item": 16,
    "battery": 79,
    "charging_status": "No",
    "charging_time": 0,
    "country": "Germany",
    "discharging_time": 3,
    "lat": 47.957366,
    "lon": 7.7769564,
    "rownr": 17,
    "vehicle": "RB 27",
    "zip_city": "79285 Ebringen",
    "row": 0,
    "col": 2
  },
  {
    "item": 17,
    "battery": 80,
    "charging_status": "No",
    "charging_time": 0,
    "country": "Germany",
    "discharging_time": 3,
    "lat": 47.9169973,
    "lon": 7.7069087,
    "rownr": 18,
    "vehicle": "RB 27",
    "zip_city": "79189 Bad Krozingen",
    "row": 1,
    "col": 1
  },
  {
    "item": 18,
    "battery": 81,
    "charging_status": "No",
    "charging_time": 0,
    "country": "Germany",
    "discharging_time": 3,
    "lat": 47.8696568,
    "lon": 7.6295503,
    "rownr": 19,
    "vehicle": "RB 27",
    "zip_city": "79426 Buggingen",
    "row": 1,
    "col": 0
  },
  {
    "item": 19,
    "battery": 82,
    "charging_status": "No",
    "charging_time": 0,
    "country": "Germany",
    "discharging_time": 3,
    "lat": 47.8237468,
    "lon": 7.614929,
    "rownr": 20,
    "vehicle": "RB 27",
    "zip_city": "79379 Müllheim",
    "row": 2,
    "col": 0
  },
  {
    "item": 20,
    "battery": 83,
    "charging_status": "No",
    "charging_time": 0,
    "country": "Germany",
    "discharging_time": 3,
    "lat": 47.800127,
    "lon": 7.5734287,
    "rownr": 21,
    "vehicle": "RB 27",
    "zip_city": "79424 Auggen",
    "row": 2,
    "col": 0
  },
  {
    "item": 21,
    "battery": 86,
    "charging_status": "No",
    "charging_time": 0,
    "country": "Germany",
    "discharging_time": 3,
    "lat": 47.7313464,
    "lon": 7.5494217,
    "rownr": 23,
    "vehicle": "RB 27",
    "zip_city": "79415 Bad Bellingen",
    "row": 3,
    "col": 0
  },
  {
    "item": 22,
    "battery": 88,
    "charging_status": "No",
    "charging_time": 0,
    "country": "Germany",
    "discharging_time": 4,
    "lat": 47.6541914,
    "lon": 7.5646311,
    "rownr": 24,
    "vehicle": "RB 27",
    "zip_city": "79588 Efringen-Kirchen",
    "row": 5,
    "col": 0
  },
  {
    "item": 23,
    "battery": 90,
    "charging_status": "Yes",
    "charging_time": 0,
    "country": "Switzerland",
    "discharging_time": 4,
    "lat": 47.5846536,
    "lon": 7.6016715,
    "rownr": 25,
    "vehicle": "RB 27",
    "zip_city": "4057 Basel",
    "row": 6,
    "col": 0
  },
  {
    "item": 24,
    "battery": 93,
    "charging_status": "No",
    "charging_time": 0,
    "country": "Germany",
    "discharging_time": 4,
    "lat": 47.5373923,
    "lon": 7.6896184,
    "rownr": 27,
    "vehicle": "RB 30",
    "zip_city": "79639 Grenzach-Wyhlen",
    "row": 7,
    "col": 1
  },
  {
    "item": 25,
    "battery": 93,
    "charging_status": "No",
    "charging_time": 0,
    "country": "Germany",
    "discharging_time": 4,
    "lat": 47.5499335,
    "lon": 7.7394777,
    "rownr": 28,
    "vehicle": "RB 30",
    "zip_city": "79618 Rheinfelden (Baden)",
    "row": 6,
    "col": 2
  },
  {
    "item": 26,
    "battery": 95,
    "charging_status": "No",
    "charging_time": 0,
    "country": "Switzerland",
    "discharging_time": 4,
    "lat": 47.5522292,
    "lon": 7.7920082,
    "rownr": 29,
    "vehicle": "SBB IR 36",
    "zip_city": "4310 Rheinfelden",
    "row": 6,
    "col": 2
  },
  {
    "item": 27,
    "battery": 97,
    "charging_status": "No",
    "charging_time": 0,
    "country": "Switzerland",
    "discharging_time": 4,
    "lat": 47.549568,
    "lon": 7.9050026,
    "rownr": 30,
    "vehicle": "SBB IR 36",
    "zip_city": "4322 Mumpf",
    "row": 6,
    "col": 3
  },
  {
    "item": 28,
    "battery": 96,
    "charging_status": "Yes",
    "charging_time": 0,
    "country": "Switzerland",
    "discharging_time": 0,
    "lat": 47.505862,
    "lon": 8.0121329,
    "rownr": 31,
    "vehicle": "SBB IR 36",
    "zip_city": "5070 Frick",
    "row": 7,
    "col": 5
  },
  {
    "item": 29,
    "battery": 94,
    "charging_status": "Yes",
    "charging_time": 0,
    "country": "Switzerland",
    "discharging_time": 0,
    "lat": 47.5027544,
    "lon": 8.0361259,
    "rownr": 32,
    "vehicle": "SBB IR 36",
    "zip_city": "5070 Frick",
    "row": 7,
    "col": 5
  },
  {
    "item": 30,
    "battery": 90,
    "charging_status": "Yes",
    "charging_time": 0,
    "country": "Switzerland",
    "discharging_time": 0,
    "lat": 47.4765532,
    "lon": 8.1006602,
    "rownr": 33,
    "vehicle": "SBB IR 36",
    "zip_city": "5078 Effingen",
    "row": 7,
    "col": 5
  },
  {
    "item": 31,
    "battery": 69,
    "charging_status": "Yes",
    "charging_time": 0,
    "country": "Switzerland",
    "discharging_time": 0,
    "lat": 47.4840614,
    "lon": 8.2102936,
    "rownr": 34,
    "vehicle": "SBB IR 36",
    "zip_city": "5200 Brugg",
    "row": 7,
    "col": 7
  },
  {
    "item": 32,
    "battery": 59,
    "charging_status": "Yes",
    "charging_time": 0,
    "country": "Switzerland",
    "discharging_time": 0,
    "lat": 47.4860433,
    "lon": 8.2670107,
    "rownr": 35,
    "vehicle": "SBB IR 36",
    "zip_city": "5300 Turgi",
    "row": 7,
    "col": 7
  },
  {
    "item": 33,
    "battery": 47,
    "charging_status": "No",
    "charging_time": 0,
    "country": "Switzerland",
    "discharging_time": 1,
    "lat": 47.4751197,
    "lon": 8.3071974,
    "rownr": 36,
    "vehicle": "SBB IR 36",
    "zip_city": "5400 Baden",
    "row": 8,
    "col": 8
  },
  {
    "item": 34,
    "battery": 47,
    "charging_status": "No",
    "charging_time": 0,
    "country": "Switzerland",
    "discharging_time": 1,
    "lat": 47.4564261,
    "lon": 8.3251004,
    "rownr": 37,
    "vehicle": "SBB IR 36",
    "zip_city": "5432 Neuenhof",
    "row": 8,
    "col": 8
  },
  {
    "item": 35,
    "battery": 54,
    "charging_status": "No",
    "charging_time": 0,
    "country": "Switzerland",
    "discharging_time": 1,
    "lat": 47.4126971,
    "lon": 8.5294711,
    "rownr": 38,
    "vehicle": "SBB S6",
    "zip_city": "8050 Zürich",
    "row": 9,
    "col": 10
  }
]
